[
{"ADDRESS": "דרך מצדה באר שבע", "Name": "מצדה", "firma": "סונול", "lat": "31.25298788402852", "lon": "34.77041623095022"},
{"ADDRESS": "דרך מצדה 226", "Name": "נאות מדבר", "firma": "פז", "lat": "31.253615879134895", "lon": "34.77064023611199"},
{"ADDRESS": "שד' דוד טוביהו 100", "Name": "טוביהו", "firma": "דלק+סד''ש", "lat": "31.246408854983528", "lon": "34.78050915846036"},
{"ADDRESS": "שד' ירושלים, מול בית החייל", "Name": "באר-שבע צפון", "firma": "פז", "lat": "31.245315853791187", "lon": "34.781623147249874"},
{"ADDRESS": "דרך המלאכה, יציאה דרומית מהעיר", "Name": "מלי", "firma": "סונול", "lat": "31.236322792257948", "lon": "34.798798043129"},
{"ADDRESS": "רח' דרך חברון", "Name": "בן גוריון", "firma": "סונול-ספרינט", "lat": "31.237569128314036", "lon": "34.793585907015505"},
{"ADDRESS": "דרך חברון 1", "Name": "באר-שבע מרכז", "firma": "פז", "lat": "31.237689506398826", "lon": "34.79392712127733"},
{"ADDRESS": "בעיר העתיקה ליד באר אברהם", "Name": "באר שבע", "firma": "דור", "lat": "31.23805325714508", "lon": "34.79361863816121"},
{"ADDRESS": "ליד חניון אגד", "Name": "נווה צאלים", "firma": "דלק", "lat": "31.243967761209348", "lon": "34.79710711251082"},
{"ADDRESS": "דרך שמשון, צמוד לאיצטדיון העירוני", "Name": "אצטדיון באר ש", "firma": "פז", "lat": "31.252573785589192", "lon": "34.786015204235134"},
{"ADDRESS": "דרך מצדה, מרכז הנגב", "Name": "כרמי-מרכז הנג", "firma": "פז", "lat": "31.25857868665641", "lon": "34.79623124164612"},
{"ADDRESS": "רח' אברהם אבינו", "Name": "אשל אברהם", "firma": "דלק", "lat": "31.26690865910514", "lon": "34.79341631871287"},
{"ADDRESS": "בכניסה לבאר שבע מכיוון קרית גת בצד ימין", "Name": "מבואות באר שב", "firma": "פז", "lat": "31.27832060120284", "lon": "34.79268141969001"},
{"ADDRESS": "דרך הנשיאים", "Name": "הדס", "firma": "סונול", "lat": "31.279275592402147", "lon": "34.79323242723537"},
{"ADDRESS": "דרך הנשיאים כביש בית קמה-ב''ש", "Name": "הנשיאים", "firma": "פז", "lat": "31.27791959242013", "lon": "34.794382413663755"},
{"ADDRESS": "רח' תוצרת הארץ, קריית יהודית, פארק אופיר", "Name": "פארק אופיר", "firma": "סונול-ספרינט", "lat": "31.220075854835528", "lon": "34.80291889492432"},
{"ADDRESS": "רח' הפועלים 17, אזור התעשייה עמק שרה", "Name": "עמק שרה", "firma": "סד''ש", "lat": "31.22619589966677", "lon": "34.807669474459416"},
{"ADDRESS": "רח' המנוף", "Name": "באר שבע-אספלט", "firma": "סונול", "lat": "31.22764775109896", "lon": "34.81254494684616"},
{"ADDRESS": "רח' צאלים", "Name": "עמק שרה", "firma": "פז", "lat": "31.226916717682144", "lon": "34.81833993184371"},
{"ADDRESS": "ביציאה הדרומית ליד שוק הבדואי", "Name": "TEN", "firma": "טן", "lat": "31.241437471730716", "lon": "34.80434843776787"},
{"ADDRESS": "דרך חברון 25 א", "Name": "תפוז", "firma": "תפוז", "lat": "31.242258081011425", "lon": "34.80409704901251"},
{"ADDRESS": "רח' פנחס החוצב", "Name": "פנחס החוצב", "firma": "דלק", "lat": "31.244593690150612", "lon": "34.80757810245944"},
{"ADDRESS": "רח' דרך חברון", "Name": "שיכון עובדים", "firma": "דלק", "lat": "31.243738680609773", "lon": "34.809782091709444"},
{"ADDRESS": "שד' שז''ר 8", "Name": "קרית הממשלה", "firma": "פז", "lat": "31.247186700011735", "lon": "34.803847130679436"},
{"ADDRESS": "דרך חברון", "Name": "דרך חברון", "firma": "סונול", "lat": "31.24514423304159", "lon": "34.81121514576373"},
{"ADDRESS": "דרך חברון 64", "Name": "אלון נספן", "firma": "אלון", "lat": "31.245817722565334", "lon": "34.81351683098204"},
{"ADDRESS": "שכונה ג', מרכז ספורט ב''ש, שד' בן גוריון", "Name": "מפגש הספורט", "firma": "דלק+סד''ש", "lat": "31.25462959772514", "lon": "34.813358181706825"},
{"ADDRESS": "בכניסה לעומר", "Name": "מתקן דב סול", "firma": "סונול", "lat": "31.251799574325798", "lon": "34.81938614799972"},
{"ADDRESS": "צומת מכתשים,ביציאה לכיוון עומר,דרך חברון", "Name": "עומרים", "firma": "דלק", "lat": "31.252263568723315", "lon": "34.81985915135889"},
{"ADDRESS": "דרך חברון, ליד המכתשים", "Name": "פז-בר", "firma": "פז", "lat": "31.251210567547258", "lon": "34.82093614054556"},
{"ADDRESS": "המלאכה פינת המוסכים", "Name": "המלאכה", "firma": "טל", "lat": "31.23681882302211", "lon": "34.79646476809992"},
{"ADDRESS": "ככר רוטשילד יחיל", "Name": "בתכנון", "firma": "בתכנון", "lat": "31.24356232639493", "lon": "34.803473321690866"},
{"ADDRESS": "רחוב בן גוריון", "Name": "בתכנון", "firma": "בתכנון", "lat": "31.25573545011698", "lon": "34.81360410487462"},
{"ADDRESS": "רחוב בן גוריון", "Name": "פטרול", "firma": "משהר אנרגיה", "lat": "31.254885826975983", "lon": "34.8141418979213"},
{"ADDRESS": "רחוב בן גוריון צמוד לבית בלטק", "Name": "בתכנון", "firma": "בתכנון", "lat": "31.2565559487472", "lon": "34.813072100156255"},
{"ADDRESS": "הכשרת הישוב", "Name": "הכשרת הישוב", "firma": "", "lat": "31.22666260781248", "lon": "34.81243094908933"},
{"ADDRESS": "אילן רמון", "Name": "אילן רמון", "firma": "דלק", "lat": "31.256366783440377", "lon": "34.7575971022932"},
{"ADDRESS": "כיכר רוטשילד יחיל", "Name": "בהקמה", "firma": "בהקמה", "lat": "31.243555406403214", "lon": "34.802751952262646"},
{"ADDRESS": "יהודה הנחתום 4", "Name": "", "firma": "", "lat": "31.25726459084937", "lon": "34.81393990485868"}
]
